stop_id,day_of_week,arrival_delay,departure_delay,stop_name
8504176,0,452.0,465.0,"Lausanne, Tunnel"
8504176,4,296.0,317.0,"Lausanne, Tunnel"
8504176,6,106.5,119.0,"Lausanne, Tunnel"
8510575,4,371.5,379.0,"Lausanne, César-Roux"
8588439,0,37.0,42.0,"Pully, port"
8588439,1,50.0,56.0,"Pully, port"
8588439,2,48.0,54.0,"Pully, port"
8588439,3,52.0,58.0,"Pully, port"
8588439,4,45.0,52.0,"Pully, port"
8588439,5,34.0,40.0,"Pully, port"
8588439,6,26.0,32.0,"Pully, port"
8588440,0,71.0,84.0,"Pully, Somais"
8588440,1,84.0,97.0,"Pully, Somais"
8588440,2,83.5,97.0,"Pully, Somais"
8588440,3,86.5,100.0,"Pully, Somais"
8588440,4,80.0,95.0,"Pully, Somais"
8588440,5,68.0,76.0,"Pully, Somais"
8588440,6,59.0,64.0,"Pully, Somais"
8588441,0,77.0,86.0,"Pully, Châtaignier"
8588441,1,92.5,103.0,"Pully, Châtaignier"
8588441,2,93.0,104.0,"Pully, Châtaignier"
8588441,3,97.0,107.0,"Pully, Châtaignier"
8588441,4,89.0,98.0,"Pully, Châtaignier"
8588441,5,70.0,77.0,"Pully, Châtaignier"
8588441,6,59.0,65.0,"Pully, Châtaignier"
8588443,4,48.0,48.0,"Pully, Préau"
8588443,6,31.5,35.0,"Pully, Préau"
8588445,4,80.5,187.0,"Pully, gare"
8588445,6,0.0,0.0,"Pully, gare"
8589522,0,486.0,504.0,"Lausanne, place du Nord"
8589522,4,338.0,338.0,"Lausanne, place du Nord"
8589522,6,108.5,128.0,"Lausanne, place du Nord"
8589523,0,533.0,533.0,"Lausanne, Bessières"
8589523,4,300.0,300.0,"Lausanne, Bessières"
8589523,6,104.0,130.5,"Lausanne, Bessières"
8590442,0,514.0,569.0,"Lausanne, Riponne-M. Béjart"
8590442,4,329.0,350.0,"Lausanne, Riponne-M. Béjart"
8590442,6,77.5,89.0,"Lausanne, Riponne-M. Béjart"
8591979,0,42.0,63.0,"Lausanne, Alpes"
8591979,1,62.0,83.0,"Lausanne, Alpes"
8591979,2,63.0,85.0,"Lausanne, Alpes"
8591979,3,64.0,86.0,"Lausanne, Alpes"
8591979,4,57.0,77.0,"Lausanne, Alpes"
8591979,5,45.0,67.0,"Lausanne, Alpes"
8591979,6,31.0,48.0,"Lausanne, Alpes"
8591984,0,64.0,81.0,"Lausanne, Beaulieu"
8591984,1,79.0,96.0,"Lausanne, Beaulieu"
8591984,2,77.0,95.0,"Lausanne, Beaulieu"
8591984,3,81.0,98.0,"Lausanne, Beaulieu"
8591984,4,79.0,97.0,"Lausanne, Beaulieu"
8591984,5,94.0,110.0,"Lausanne, Beaulieu"
8591984,6,62.0,76.0,"Lausanne, Beaulieu"
8591987,0,62.0,79.0,"Lausanne, Beau-Site"
8591987,1,71.0,90.0,"Lausanne, Beau-Site"
8591987,2,71.0,88.0,"Lausanne, Beau-Site"
8591987,3,74.0,92.0,"Lausanne, Beau-Site"
8591987,4,71.0,91.0,"Lausanne, Beau-Site"
8591987,5,68.0,85.0,"Lausanne, Beau-Site"
8591987,6,46.0,58.0,"Lausanne, Beau-Site"
8591988,0,-13.5,11.0,"Lausanne, Bel-Air"
8591988,1,35.0,46.0,"Lausanne, Bel-Air"
8591988,2,35.0,46.5,"Lausanne, Bel-Air"
8591988,3,-5.0,17.0,"Lausanne, Bel-Air"
8591988,4,30.0,48.0,"Lausanne, Bel-Air"
8591988,5,99.0,131.0,"Lausanne, Bel-Air"
8591988,6,17.0,53.0,"Lausanne, Bel-Air"
8591992,0,48.0,70.0,"Lausanne, Bergières"
8591992,1,61.0,82.0,"Lausanne, Bergières"
8591992,2,61.0,83.0,"Lausanne, Bergières"
8591992,3,66.0,87.0,"Lausanne, Bergières"
8591992,4,63.0,85.0,"Lausanne, Bergières"
8591992,5,59.0,80.0,"Lausanne, Bergières"
8591992,6,30.0,46.0,"Lausanne, Bergières"
8591994,0,0.0,0.0,"Lausanne, Blécherette"
8591994,1,0.0,0.0,"Lausanne, Blécherette"
8591994,2,0.0,0.0,"Lausanne, Blécherette"
8591994,3,0.0,0.0,"Lausanne, Blécherette"
8591994,4,0.0,0.0,"Lausanne, Blécherette"
8591994,5,0.0,0.0,"Lausanne, Blécherette"
8591994,6,0.0,0.0,"Lausanne, Blécherette"
8591998,0,69.0,87.0,"Lausanne, Boisy"
8591998,1,81.0,100.0,"Lausanne, Boisy"
8591998,2,79.0,99.0,"Lausanne, Boisy"
8591998,3,82.0,102.0,"Lausanne, Boisy"
8591998,4,81.0,99.0,"Lausanne, Boisy"
8591998,5,73.0,92.0,"Lausanne, Boisy"
8591998,6,49.0,63.0,"Lausanne, Boisy"
8592000,0,29.0,44.0,"Lausanne, Bossons"
8592000,1,38.0,53.0,"Lausanne, Bossons"
8592000,2,37.0,52.0,"Lausanne, Bossons"
8592000,3,40.0,54.0,"Lausanne, Bossons"
8592000,4,36.0,51.0,"Lausanne, Bossons"
8592000,5,35.0,46.0,"Lausanne, Bossons"
8592000,6,19.0,27.0,"Lausanne, Bossons"
8592001,0,30.0,47.0,"Lausanne, Boston"
8592001,1,36.0,70.0,"Lausanne, Boston"
8592001,2,46.0,66.5,"Lausanne, Boston"
8592001,3,31.5,57.0,"Lausanne, Boston"
8592001,4,27.0,51.0,"Lausanne, Boston"
8592001,5,35.0,55.0,"Lausanne, Boston"
8592001,6,20.0,44.0,"Lausanne, Boston"
8592004,0,63.0,99.0,"Lausanne, Cécil"
8592004,1,85.0,119.0,"Lausanne, Cécil"
8592004,2,86.0,121.0,"Lausanne, Cécil"
8592004,3,89.0,123.0,"Lausanne, Cécil"
8592004,4,83.0,119.0,"Lausanne, Cécil"
8592004,5,83.0,116.0,"Lausanne, Cécil"
8592004,6,61.0,93.0,"Lausanne, Cécil"
8592010,0,4.0,47.0,"Lausanne, Chauderon"
8592010,1,24.0,68.0,"Lausanne, Chauderon"
8592010,2,28.0,72.0,"Lausanne, Chauderon"
8592010,3,29.0,73.0,"Lausanne, Chauderon"
8592010,4,21.0,66.0,"Lausanne, Chauderon"
8592010,5,23.0,67.0,"Lausanne, Chauderon"
8592010,6,0.0,40.0,"Lausanne, Chauderon"
8592029,0,87.0,92.0,"Lausanne, Denantou"
8592029,1,104.0,111.0,"Lausanne, Denantou"
8592029,2,106.0,113.0,"Lausanne, Denantou"
8592029,3,110.0,115.0,"Lausanne, Denantou"
8592029,4,100.0,106.0,"Lausanne, Denantou"
8592029,5,61.0,65.0,"Lausanne, Denantou"
8592029,6,64.0,68.0,"Lausanne, Denantou"
8592050,0,13.0,53.0,"Lausanne, gare"
8592050,1,35.0,72.0,"Lausanne, gare"
8592050,2,35.5,75.0,"Lausanne, gare"
8592050,3,37.0,77.0,"Lausanne, gare"
8592050,4,31.0,70.0,"Lausanne, gare"
8592050,5,27.0,64.0,"Lausanne, gare"
8592050,6,3.0,42.0,"Lausanne, gare"
8592051,0,590.0,590.0,"Lausanne, Georgette"
8592051,4,281.0,311.0,"Lausanne, Georgette"
8592051,6,124.0,150.0,"Lausanne, Georgette"
8592056,0,52.0,70.0,"Lausanne, Grattapaille"
8592056,1,65.0,84.0,"Lausanne, Grattapaille"
8592056,2,64.0,81.0,"Lausanne, Grattapaille"
8592056,3,65.0,83.0,"Lausanne, Grattapaille"
8592056,4,63.0,81.0,"Lausanne, Grattapaille"
8592056,5,64.0,79.0,"Lausanne, Grattapaille"
8592056,6,49.0,59.0,"Lausanne, Grattapaille"
8592060,0,33.0,65.0,"Lausanne, Beaulieu-Jomini"
8592060,1,48.0,79.0,"Lausanne, Beaulieu-Jomini"
8592060,2,47.0,80.0,"Lausanne, Beaulieu-Jomini"
8592060,3,52.0,85.0,"Lausanne, Beaulieu-Jomini"
8592060,4,49.0,79.0,"Lausanne, Beaulieu-Jomini"
8592060,5,65.0,96.0,"Lausanne, Beaulieu-Jomini"
8592060,6,30.0,53.0,"Lausanne, Beaulieu-Jomini"
8592062,0,72.0,88.0,"Lausanne, Jurigoz"
8592062,1,92.0,107.0,"Lausanne, Jurigoz"
8592062,2,93.0,108.0,"Lausanne, Jurigoz"
8592062,3,98.0,113.5,"Lausanne, Jurigoz"
8592062,4,86.0,103.0,"Lausanne, Jurigoz"
8592062,5,83.0,97.0,"Lausanne, Jurigoz"
8592062,6,64.0,78.0,"Lausanne, Jurigoz"
8592072,0,63.0,80.0,"Lausanne, Mirabeau"
8592072,1,89.0,105.0,"Lausanne, Mirabeau"
8592072,2,91.0,109.0,"Lausanne, Mirabeau"
8592072,3,94.0,110.0,"Lausanne, Mirabeau"
8592072,4,94.0,111.0,"Lausanne, Mirabeau"
8592072,5,70.0,81.0,"Lausanne, Mirabeau"
8592072,6,66.0,76.0,"Lausanne, Mirabeau"
8592077,0,41.0,60.0,"Lausanne, Montchoisi"
8592077,1,60.0,79.0,"Lausanne, Montchoisi"
8592077,2,61.0,79.0,"Lausanne, Montchoisi"
8592077,3,65.0,85.0,"Lausanne, Montchoisi"
8592077,4,55.0,75.0,"Lausanne, Montchoisi"
8592077,5,46.0,63.0,"Lausanne, Montchoisi"
8592077,6,37.0,53.0,"Lausanne, Montchoisi"
8592084,0,85.0,98.0,"Lausanne, Musée Olympique"
8592084,1,105.0,118.0,"Lausanne, Musée Olympique"
8592084,2,105.0,118.0,"Lausanne, Musée Olympique"
8592084,3,108.0,122.0,"Lausanne, Musée Olympique"
8592084,4,98.0,112.0,"Lausanne, Musée Olympique"
8592084,5,61.0,71.0,"Lausanne, Musée Olympique"
8592084,6,66.0,76.0,"Lausanne, Musée Olympique"
8592096,0,24.0,63.0,"Lausanne, Pont Chauderon"
8592096,1,41.0,78.5,"Lausanne, Pont Chauderon"
8592096,2,40.0,79.0,"Lausanne, Pont Chauderon"
8592096,3,46.0,85.0,"Lausanne, Pont Chauderon"
8592096,4,44.0,83.0,"Lausanne, Pont Chauderon"
8592096,5,62.0,96.0,"Lausanne, Pont Chauderon"
8592096,6,41.0,75.0,"Lausanne, Pont Chauderon"
8592102,0,0.0,51.0,"Lausanne, Prélaz"
8592102,1,0.0,55.0,"Lausanne, Prélaz"
8592102,2,0.0,54.5,"Lausanne, Prélaz"
8592102,3,0.0,57.5,"Lausanne, Prélaz"
8592102,4,0.0,58.0,"Lausanne, Prélaz"
8592102,5,0.0,57.0,"Lausanne, Prélaz"
8592102,6,0.0,43.0,"Lausanne, Prélaz"
8592104,0,69.0,82.0,"Lausanne, Presbytère"
8592104,1,82.0,97.0,"Lausanne, Presbytère"
8592104,2,83.0,97.0,"Lausanne, Presbytère"
8592104,3,87.0,100.0,"Lausanne, Presbytère"
8592104,4,82.0,97.0,"Lausanne, Presbytère"
8592104,5,101.0,113.0,"Lausanne, Presbytère"
8592104,6,68.0,78.0,"Lausanne, Presbytère"
8592109,0,72.0,85.0,"Lausanne, Recordon"
8592109,1,83.0,98.0,"Lausanne, Recordon"
8592109,2,89.5,96.5,"Lausanne, Recordon"
8592109,3,77.0,85.5,"Lausanne, Recordon"
8592109,4,73.0,85.0,"Lausanne, Recordon"
8592109,5,94.0,97.0,"Lausanne, Recordon"
8592109,6,82.0,87.0,"Lausanne, Recordon"
8592113,0,-18.0,48.0,"Lausanne, rue Neuve"
8592113,1,1.5,50.0,"Lausanne, rue Neuve"
8592113,2,-4.5,62.0,"Lausanne, rue Neuve"
8592113,3,-32.0,31.0,"Lausanne, rue Neuve"
8592113,4,88.0,153.0,"Lausanne, rue Neuve"
8592113,5,81.5,158.0,"Lausanne, rue Neuve"
8592113,6,-9.0,35.0,"Lausanne, rue Neuve"
8592120,0,43.0,65.0,"Lausanne, St-Roch"
8592120,1,59.0,83.0,"Lausanne, St-Roch"
8592120,2,60.0,83.0,"Lausanne, St-Roch"
8592120,3,61.0,87.0,"Lausanne, St-Roch"
8592120,4,54.0,80.0,"Lausanne, St-Roch"
8592120,5,75.0,97.0,"Lausanne, St-Roch"
8592120,6,60.0,78.0,"Lausanne, St-Roch"
8592125,0,109.0,113.0,"Lausanne, Valentin"
8592125,1,81.5,85.5,"Lausanne, Valentin"
8592125,2,90.0,105.5,"Lausanne, Valentin"
8592125,3,62.0,73.0,"Lausanne, Valentin"
8592125,4,228.0,233.0,"Lausanne, Valentin"
8592125,5,168.5,184.5,"Lausanne, Valentin"
8592125,6,88.5,90.0,"Lausanne, Valentin"
8592134,0,50.0,67.0,"Lausanne, Villard"
8592134,1,69.0,89.0,"Lausanne, Villard"
8592134,2,66.0,86.0,"Lausanne, Villard"
8592134,3,75.0,96.0,"Lausanne, Villard"
8592134,4,61.0,80.0,"Lausanne, Villard"
8592134,5,53.0,67.0,"Lausanne, Villard"
8592134,6,28.0,43.0,"Lausanne, Villard"
8592135,0,46.0,56.0,"Lausanne, Vinet"
8592135,1,22.0,25.5,"Lausanne, Vinet"
8592135,2,38.0,46.0,"Lausanne, Vinet"
8592135,3,8.0,10.0,"Lausanne, Vinet"
8592135,4,212.5,223.0,"Lausanne, Vinet"
8592135,5,171.0,171.0,"Lausanne, Vinet"
8592135,6,91.0,96.0,"Lausanne, Vinet"
8592168,0,0.0,0.0,"Paudex, Verrière"
8592168,1,0.0,5.0,"Paudex, Verrière"
8592168,2,0.0,0.0,"Paudex, Verrière"
8592168,3,0.0,7.0,"Paudex, Verrière"
8592168,4,0.0,0.0,"Paudex, Verrière"
8592168,5,0.0,3.0,"Paudex, Verrière"
8592168,6,0.0,0.0,"Paudex, Verrière"
8592170,0,100.0,108.0,"Pully, Bourdonnière"
8592170,1,115.0,125.0,"Pully, Bourdonnière"
8592170,2,117.0,126.0,"Pully, Bourdonnière"
8592170,3,120.0,130.0,"Pully, Bourdonnière"
8592170,4,112.0,121.0,"Pully, Bourdonnière"
8592170,5,82.0,89.0,"Pully, Bourdonnière"
8592170,6,83.0,88.0,"Pully, Bourdonnière"
8592172,4,152.0,162.0,"Pully, C. F. Ramuz"
8592172,6,7.5,17.0,"Pully, C. F. Ramuz"
8592182,4,170.0,177.0,"Pully, Joliette"
8592182,6,53.0,58.5,"Pully, Joliette"
8592186,4,178.0,180.0,"Pully, Métairie"
8592186,6,48.0,48.0,"Pully, Métairie"
8592193,4,158.0,174.0,"Pully, Pierraz-Portay"
8592193,6,47.5,50.0,"Pully, Pierraz-Portay"
8592197,0,98.0,107.0,"Pully, Tour Haldimand"
8592197,1,115.0,126.0,"Pully, Tour Haldimand"
8592197,2,115.0,125.0,"Pully, Tour Haldimand"
8592197,3,119.0,128.5,"Pully, Tour Haldimand"
8592197,4,110.0,118.0,"Pully, Tour Haldimand"
8592197,5,83.0,91.0,"Pully, Tour Haldimand"
8592197,6,84.0,91.0,"Pully, Tour Haldimand"
8592198,0,82.0,90.0,"Pully, Verney"
8592198,1,101.0,108.0,"Pully, Verney"
8592198,2,100.0,107.0,"Pully, Verney"
8592198,3,102.0,112.0,"Pully, Verney"
8592198,4,92.0,103.0,"Pully, Verney"
8592198,5,71.0,76.0,"Pully, Verney"
8592198,6,75.0,80.0,"Pully, Verney"
8592199,0,49.0,59.0,"Pully, Vignes"
8592199,1,61.0,72.0,"Pully, Vignes"
8592199,2,60.0,70.0,"Pully, Vignes"
8592199,3,63.0,74.5,"Pully, Vignes"
8592199,4,59.0,69.0,"Pully, Vignes"
8592199,5,48.0,58.0,"Pully, Vignes"
8592199,6,41.0,51.0,"Pully, Vignes"
