stop_id,day_of_week,arrival_delay,departure_delay,stop_name
8504176,0,-458.0,-332.0,"Lausanne, Tunnel"
8504176,4,5.0,5.0,"Lausanne, Tunnel"
8590442,0,0.0,0.0,"Lausanne, Riponne-M. Béjart"
8590442,4,19.0,0.0,"Lausanne, Riponne-M. Béjart"
8591987,2,932.0,940.0,"Lausanne, Beau-Site"
8591994,0,0.0,0.0,"Lausanne, Blécherette"
8591994,1,0.0,0.0,"Lausanne, Blécherette"
8591994,2,0.0,0.0,"Lausanne, Blécherette"
8591994,3,0.0,0.0,"Lausanne, Blécherette"
8591994,4,0.0,0.0,"Lausanne, Blécherette"
8591994,5,0.0,0.0,"Lausanne, Blécherette"
8591996,0,75.0,99.0,"Lausanne, Bois-Gentil"
8591996,1,83.0,107.0,"Lausanne, Bois-Gentil"
8591996,2,85.0,111.0,"Lausanne, Bois-Gentil"
8591996,3,82.0,106.0,"Lausanne, Bois-Gentil"
8591996,4,81.0,104.0,"Lausanne, Bois-Gentil"
8591996,5,79.0,102.0,"Lausanne, Bois-Gentil"
8592000,2,896.0,896.0,"Lausanne, Bossons"
8592001,0,4.0,35.0,"Lausanne, Boston"
8592001,1,40.0,82.0,"Lausanne, Boston"
8592001,2,24.5,59.0,"Lausanne, Boston"
8592001,3,19.0,53.0,"Lausanne, Boston"
8592001,4,27.0,58.0,"Lausanne, Boston"
8592001,5,15.0,43.5,"Lausanne, Boston"
8592003,0,80.0,96.0,"Lausanne, casernes"
8592003,1,87.0,105.0,"Lausanne, casernes"
8592003,2,90.0,108.0,"Lausanne, casernes"
8592003,3,87.0,105.0,"Lausanne, casernes"
8592003,4,87.0,105.0,"Lausanne, casernes"
8592003,5,93.0,108.0,"Lausanne, casernes"
8592004,0,70.0,118.0,"Lausanne, Cécil"
8592004,1,83.0,126.0,"Lausanne, Cécil"
8592004,2,92.0,131.0,"Lausanne, Cécil"
8592004,3,82.5,125.0,"Lausanne, Cécil"
8592004,4,82.0,125.0,"Lausanne, Cécil"
8592004,5,71.0,117.0,"Lausanne, Cécil"
8592010,0,1.0,45.5,"Lausanne, Chauderon"
8592010,1,11.0,55.0,"Lausanne, Chauderon"
8592010,2,17.0,60.0,"Lausanne, Chauderon"
8592010,3,10.0,52.0,"Lausanne, Chauderon"
8592010,4,7.0,51.0,"Lausanne, Chauderon"
8592010,5,2.0,45.0,"Lausanne, Chauderon"
8592033,4,150.5,153.0,"Lausanne, Druey"
8592034,4,145.5,145.5,"Lausanne, Druey-Collège"
8592046,0,0.0,13.0,"Lausanne, Fontenay"
8592050,0,0.0,12.0,"Lausanne, gare"
8592050,1,0.0,13.0,"Lausanne, gare"
8592050,2,0.0,13.0,"Lausanne, gare"
8592050,3,0.0,13.0,"Lausanne, gare"
8592050,4,0.0,12.0,"Lausanne, gare"
8592050,5,0.0,10.0,"Lausanne, gare"
8592056,2,918.0,918.0,"Lausanne, Grattapaille"
8592060,0,55.0,79.0,"Lausanne, Beaulieu-Jomini"
8592060,1,68.0,95.5,"Lausanne, Beaulieu-Jomini"
8592060,2,69.0,97.0,"Lausanne, Beaulieu-Jomini"
8592060,3,68.0,92.0,"Lausanne, Beaulieu-Jomini"
8592060,4,68.0,95.0,"Lausanne, Beaulieu-Jomini"
8592060,5,69.0,95.0,"Lausanne, Beaulieu-Jomini"
8592064,0,1.0,1.0,"Lausanne, Languedoc"
8592076,0,98.0,109.0,"Lausanne, Mont-Blanc"
8592076,1,111.0,122.0,"Lausanne, Mont-Blanc"
8592076,2,114.0,126.0,"Lausanne, Mont-Blanc"
8592076,3,110.0,122.0,"Lausanne, Mont-Blanc"
8592076,4,110.0,122.0,"Lausanne, Mont-Blanc"
8592076,5,114.0,123.0,"Lausanne, Mont-Blanc"
8592085,4,273.0,275.0,"Lausanne, Oiseaux"
8592088,0,73.0,85.0,"Lausanne, Parc Vélodrome"
8592088,1,80.0,93.0,"Lausanne, Parc Vélodrome"
8592088,2,84.0,95.0,"Lausanne, Parc Vélodrome"
8592088,3,81.0,94.0,"Lausanne, Parc Vélodrome"
8592088,4,80.0,92.0,"Lausanne, Parc Vélodrome"
8592088,5,78.0,89.0,"Lausanne, Parc Vélodrome"
8592096,0,80.0,109.0,"Lausanne, Pont Chauderon"
8592096,1,103.0,131.0,"Lausanne, Pont Chauderon"
8592096,2,104.0,134.0,"Lausanne, Pont Chauderon"
8592096,3,97.0,128.0,"Lausanne, Pont Chauderon"
8592096,4,104.5,134.5,"Lausanne, Pont Chauderon"
8592096,5,122.0,147.0,"Lausanne, Pont Chauderon"
8592097,0,-19.0,-7.0,"Lausanne, Pont Marc Dufour"
8592102,0,0.0,37.0,"Lausanne, Prélaz"
8592102,1,0.0,70.0,"Lausanne, Prélaz"
8592102,2,0.0,48.0,"Lausanne, Prélaz"
8592102,3,0.0,29.0,"Lausanne, Prélaz"
8592102,4,0.0,46.0,"Lausanne, Prélaz"
8592102,5,0.0,63.5,"Lausanne, Prélaz"
8592109,0,77.0,82.0,"Lausanne, Recordon"
8592109,1,104.0,108.0,"Lausanne, Recordon"
8592109,2,77.5,91.5,"Lausanne, Recordon"
8592109,3,75.0,84.0,"Lausanne, Recordon"
8592109,4,80.0,98.0,"Lausanne, Recordon"
8592109,5,96.5,99.5,"Lausanne, Recordon"
8592113,0,293.0,293.0,"Lausanne, rue Neuve"
8592113,4,188.5,188.5,"Lausanne, rue Neuve"
8592116,0,77.0,88.0,"Lausanne, Stade Olympique"
8592116,1,84.0,95.0,"Lausanne, Stade Olympique"
8592116,2,87.0,97.0,"Lausanne, Stade Olympique"
8592116,3,85.0,96.0,"Lausanne, Stade Olympique"
8592116,4,84.5,96.0,"Lausanne, Stade Olympique"
8592116,5,83.0,90.5,"Lausanne, Stade Olympique"
8592120,0,59.0,79.0,"Lausanne, St-Roch"
8592120,1,74.0,97.0,"Lausanne, St-Roch"
8592120,2,78.0,99.0,"Lausanne, St-Roch"
8592120,3,73.0,94.0,"Lausanne, St-Roch"
8592120,4,71.0,92.0,"Lausanne, St-Roch"
8592120,5,96.0,116.0,"Lausanne, St-Roch"
8592125,0,186.0,186.0,"Lausanne, Valentin"
8592125,4,139.5,153.5,"Lausanne, Valentin"
8592132,0,0.0,-114.5,"Lausanne, Vieux-Moulin"
8592132,1,0.0,-72.0,"Lausanne, Vieux-Moulin"
8592132,2,0.0,-34.0,"Lausanne, Vieux-Moulin"
8592132,3,0.0,-42.0,"Lausanne, Vieux-Moulin"
8592132,4,0.0,-41.0,"Lausanne, Vieux-Moulin"
8592132,5,0.0,-93.5,"Lausanne, Vieux-Moulin"
8592134,0,19.0,35.0,"Lausanne, Villard"
8592134,1,21.0,38.0,"Lausanne, Villard"
8592134,2,23.0,40.0,"Lausanne, Villard"
8592134,3,21.0,36.0,"Lausanne, Villard"
8592134,4,19.0,35.0,"Lausanne, Villard"
8592134,5,14.0,31.0,"Lausanne, Villard"
8592135,0,234.0,246.0,"Lausanne, Vinet"
8592135,4,157.0,157.0,"Lausanne, Vinet"
