stop_id,day_of_week,arrival_delay,departure_delay,stop_name
8504176,0,91.0,131.0,"Lausanne, Tunnel"
8504176,4,143.5,174.5,"Lausanne, Tunnel"
8504176,6,137.0,170.0,"Lausanne, Tunnel"
8587357,0,0.0,0.0,"Lausanne, Bellevaux"
8587357,1,0.0,0.0,"Lausanne, Bellevaux"
8587357,2,0.0,0.0,"Lausanne, Bellevaux"
8587357,3,0.0,0.0,"Lausanne, Bellevaux"
8587357,4,0.0,0.0,"Lausanne, Bellevaux"
8587357,5,0.0,0.0,"Lausanne, Bellevaux"
8587357,6,0.0,0.0,"Lausanne, Bellevaux"
8590442,0,0.0,0.0,"Lausanne, Riponne-M. Béjart"
8590442,1,-30.0,2.0,"Lausanne, Riponne-M. Béjart"
8590442,2,-33.0,0.0,"Lausanne, Riponne-M. Béjart"
8590442,3,-29.0,9.0,"Lausanne, Riponne-M. Béjart"
8590442,4,109.0,138.5,"Lausanne, Riponne-M. Béjart"
8590442,5,-1.5,47.5,"Lausanne, Riponne-M. Béjart"
8590442,6,15.0,37.0,"Lausanne, Riponne-M. Béjart"
8591988,0,-20.0,-4.5,"Lausanne, Bel-Air"
8591988,1,-36.0,-15.0,"Lausanne, Bel-Air"
8591988,2,-25.0,-8.0,"Lausanne, Bel-Air"
8591988,3,-17.0,-1.0,"Lausanne, Bel-Air"
8591988,4,70.0,101.0,"Lausanne, Bel-Air"
8591988,5,-1.0,23.0,"Lausanne, Bel-Air"
8591988,6,-20.5,-4.5,"Lausanne, Bel-Air"
8592001,0,38.0,56.0,"Lausanne, Boston"
8592001,1,35.0,54.0,"Lausanne, Boston"
8592001,2,43.0,59.0,"Lausanne, Boston"
8592001,3,39.0,54.0,"Lausanne, Boston"
8592001,4,53.5,69.0,"Lausanne, Boston"
8592001,5,47.5,65.5,"Lausanne, Boston"
8592001,6,16.0,37.5,"Lausanne, Boston"
8592003,0,46.0,65.0,"Lausanne, casernes"
8592003,1,58.0,76.0,"Lausanne, casernes"
8592003,2,55.0,73.0,"Lausanne, casernes"
8592003,3,54.0,70.0,"Lausanne, casernes"
8592003,4,56.0,75.0,"Lausanne, casernes"
8592003,5,57.0,73.0,"Lausanne, casernes"
8592003,6,44.0,59.0,"Lausanne, casernes"
8592004,0,51.0,91.0,"Lausanne, Cécil"
8592004,1,70.0,109.0,"Lausanne, Cécil"
8592004,2,69.0,107.0,"Lausanne, Cécil"
8592004,3,64.0,105.0,"Lausanne, Cécil"
8592004,4,68.0,107.0,"Lausanne, Cécil"
8592004,5,63.0,98.0,"Lausanne, Cécil"
8592004,6,48.0,82.0,"Lausanne, Cécil"
8592010,0,3.0,41.0,"Lausanne, Chauderon"
8592010,1,15.0,52.0,"Lausanne, Chauderon"
8592010,2,14.0,49.0,"Lausanne, Chauderon"
8592010,3,13.0,48.0,"Lausanne, Chauderon"
8592010,4,13.0,47.0,"Lausanne, Chauderon"
8592010,5,6.0,42.0,"Lausanne, Chauderon"
8592010,6,-1.0,35.0,"Lausanne, Chauderon"
8592011,4,12.0,45.0,"Lausanne, Chauderon-Ale"
8592011,6,212.0,243.0,"Lausanne, Chauderon-Ale"
8592033,0,57.5,66.0,"Lausanne, Druey"
8592033,1,65.0,73.0,"Lausanne, Druey"
8592033,2,72.0,73.0,"Lausanne, Druey"
8592033,3,78.0,87.0,"Lausanne, Druey"
8592033,4,97.0,100.0,"Lausanne, Druey"
8592033,5,65.5,67.5,"Lausanne, Druey"
8592033,6,45.0,46.0,"Lausanne, Druey"
8592034,0,27.0,31.5,"Lausanne, Druey-Collège"
8592034,1,19.0,32.0,"Lausanne, Druey-Collège"
8592034,2,26.0,35.0,"Lausanne, Druey-Collège"
8592034,3,40.0,46.0,"Lausanne, Druey-Collège"
8592034,4,48.0,61.0,"Lausanne, Druey-Collège"
8592034,5,72.5,72.5,"Lausanne, Druey-Collège"
8592034,6,24.0,27.0,"Lausanne, Druey-Collège"
8592046,0,0.0,-10.0,"Lausanne, Fontenay"
8592046,4,437.0,0.0,"Lausanne, Fontenay"
8592047,0,62.0,87.0,"Lausanne, Forêt"
8592047,1,71.0,97.0,"Lausanne, Forêt"
8592047,2,70.0,96.0,"Lausanne, Forêt"
8592047,3,68.0,93.0,"Lausanne, Forêt"
8592047,4,70.0,96.0,"Lausanne, Forêt"
8592047,5,64.0,86.0,"Lausanne, Forêt"
8592047,6,53.0,71.0,"Lausanne, Forêt"
8592050,0,0.0,14.0,"Lausanne, gare"
8592050,1,0.0,18.0,"Lausanne, gare"
8592050,2,0.0,16.0,"Lausanne, gare"
8592050,3,0.0,16.0,"Lausanne, gare"
8592050,4,0.0,16.0,"Lausanne, gare"
8592050,5,0.0,16.0,"Lausanne, gare"
8592050,6,0.0,13.0,"Lausanne, gare"
8592053,0,142.0,161.0,"Lausanne, Grande-Borde"
8592053,4,163.5,173.5,"Lausanne, Grande-Borde"
8592053,6,174.0,192.0,"Lausanne, Grande-Borde"
8592060,0,33.0,61.0,"Lausanne, Beaulieu-Jomini"
8592060,1,46.0,76.0,"Lausanne, Beaulieu-Jomini"
8592060,2,44.0,75.0,"Lausanne, Beaulieu-Jomini"
8592060,3,41.0,70.0,"Lausanne, Beaulieu-Jomini"
8592060,4,43.0,72.0,"Lausanne, Beaulieu-Jomini"
8592060,5,46.0,74.0,"Lausanne, Beaulieu-Jomini"
8592060,6,29.0,56.0,"Lausanne, Beaulieu-Jomini"
8592064,0,-46.0,-46.0,"Lausanne, Languedoc"
8592064,4,485.0,485.0,"Lausanne, Languedoc"
8592071,0,162.0,176.0,"Lausanne, Mémise"
8592071,4,169.0,169.0,"Lausanne, Mémise"
8592071,6,170.0,183.0,"Lausanne, Mémise"
8592076,0,74.0,88.0,"Lausanne, Mont-Blanc"
8592076,1,90.0,104.0,"Lausanne, Mont-Blanc"
8592076,2,85.0,100.0,"Lausanne, Mont-Blanc"
8592076,3,83.0,98.0,"Lausanne, Mont-Blanc"
8592076,4,85.0,99.0,"Lausanne, Mont-Blanc"
8592076,5,90.0,102.0,"Lausanne, Mont-Blanc"
8592076,6,72.0,85.0,"Lausanne, Mont-Blanc"
8592082,0,30.0,47.0,"Lausanne, Motte"
8592082,1,40.0,57.0,"Lausanne, Motte"
8592082,2,37.0,54.0,"Lausanne, Motte"
8592082,3,34.0,51.0,"Lausanne, Motte"
8592082,4,37.5,55.0,"Lausanne, Motte"
8592082,5,34.0,49.0,"Lausanne, Motte"
8592082,6,33.0,46.0,"Lausanne, Motte"
8592096,0,42.0,72.0,"Lausanne, Pont Chauderon"
8592096,1,61.0,91.0,"Lausanne, Pont Chauderon"
8592096,2,58.0,89.0,"Lausanne, Pont Chauderon"
8592096,3,55.0,85.0,"Lausanne, Pont Chauderon"
8592096,4,59.0,90.0,"Lausanne, Pont Chauderon"
8592096,5,72.0,100.0,"Lausanne, Pont Chauderon"
8592096,6,36.0,59.0,"Lausanne, Pont Chauderon"
8592097,0,-76.0,-67.0,"Lausanne, Pont Marc Dufour"
8592097,4,507.0,507.0,"Lausanne, Pont Marc Dufour"
8592102,0,0.0,0.0,"Lausanne, Prélaz"
8592102,1,0.0,0.0,"Lausanne, Prélaz"
8592102,2,0.0,0.0,"Lausanne, Prélaz"
8592102,3,0.0,0.0,"Lausanne, Prélaz"
8592102,4,0.0,0.5,"Lausanne, Prélaz"
8592102,5,0.0,5.5,"Lausanne, Prélaz"
8592102,6,0.0,0.0,"Lausanne, Prélaz"
8592109,0,66.5,71.5,"Lausanne, Recordon"
8592109,1,57.0,61.0,"Lausanne, Recordon"
8592109,2,60.0,73.0,"Lausanne, Recordon"
8592109,3,68.0,78.0,"Lausanne, Recordon"
8592109,4,83.5,90.5,"Lausanne, Recordon"
8592109,5,92.0,94.0,"Lausanne, Recordon"
8592109,6,62.5,67.5,"Lausanne, Recordon"
8592111,0,34.0,55.0,"Lausanne, Rouvraie"
8592111,1,53.0,73.0,"Lausanne, Rouvraie"
8592111,2,53.0,71.0,"Lausanne, Rouvraie"
8592111,3,47.0,67.0,"Lausanne, Rouvraie"
8592111,4,52.0,72.0,"Lausanne, Rouvraie"
8592111,5,49.0,66.0,"Lausanne, Rouvraie"
8592111,6,34.0,50.0,"Lausanne, Rouvraie"
8592113,0,-16.0,6.0,"Lausanne, rue Neuve"
8592113,1,-57.5,-39.0,"Lausanne, rue Neuve"
8592113,2,-33.0,5.0,"Lausanne, rue Neuve"
8592113,3,-11.0,-11.0,"Lausanne, rue Neuve"
8592113,4,-12.0,6.0,"Lausanne, rue Neuve"
8592113,5,-64.0,3.0,"Lausanne, rue Neuve"
8592113,6,-39.0,-36.0,"Lausanne, rue Neuve"
8592120,0,49.0,69.0,"Lausanne, St-Roch"
8592120,1,63.0,85.0,"Lausanne, St-Roch"
8592120,2,61.0,84.0,"Lausanne, St-Roch"
8592120,3,57.0,79.0,"Lausanne, St-Roch"
8592120,4,59.0,80.5,"Lausanne, St-Roch"
8592120,5,80.0,98.0,"Lausanne, St-Roch"
8592120,6,64.0,81.0,"Lausanne, St-Roch"
8592125,0,2.0,13.5,"Lausanne, Valentin"
8592125,1,-2.0,1.0,"Lausanne, Valentin"
8592125,2,1.0,10.0,"Lausanne, Valentin"
8592125,3,10.5,13.0,"Lausanne, Valentin"
8592125,4,33.0,37.0,"Lausanne, Valentin"
8592125,5,31.0,38.5,"Lausanne, Valentin"
8592125,6,-7.0,-6.0,"Lausanne, Valentin"
8592132,0,34.0,51.0,"Lausanne, Vieux-Moulin"
8592132,1,40.0,57.0,"Lausanne, Vieux-Moulin"
8592132,2,37.0,55.0,"Lausanne, Vieux-Moulin"
8592132,3,35.0,51.0,"Lausanne, Vieux-Moulin"
8592132,4,40.0,57.0,"Lausanne, Vieux-Moulin"
8592132,5,30.0,46.0,"Lausanne, Vieux-Moulin"
8592132,6,25.0,39.0,"Lausanne, Vieux-Moulin"
8592134,0,29.0,35.0,"Lausanne, Villard"
8592134,1,34.0,41.0,"Lausanne, Villard"
8592134,2,33.0,40.0,"Lausanne, Villard"
8592134,3,32.0,39.0,"Lausanne, Villard"
8592134,4,33.0,39.0,"Lausanne, Villard"
8592134,5,25.0,30.0,"Lausanne, Villard"
8592134,6,28.0,33.0,"Lausanne, Villard"
8592135,0,191.0,222.5,"Lausanne, Vinet"
8592135,4,215.0,227.0,"Lausanne, Vinet"
