stop_id,day_of_week,arrival_delay,departure_delay,stop_name
8504176,0,58.0,108.0,"Lausanne, Tunnel"
8504176,1,80.0,132.0,"Lausanne, Tunnel"
8504176,2,89.0,140.0,"Lausanne, Tunnel"
8504176,3,84.0,135.0,"Lausanne, Tunnel"
8504176,4,87.0,140.0,"Lausanne, Tunnel"
8504176,5,108.0,161.5,"Lausanne, Tunnel"
8504176,6,76.0,128.0,"Lausanne, Tunnel"
8510575,0,157.0,187.0,"Lausanne, César-Roux"
8510575,1,364.0,373.5,"Lausanne, César-Roux"
8510575,2,340.0,370.0,"Lausanne, César-Roux"
8510575,3,502.0,519.0,"Lausanne, César-Roux"
8510575,6,158.0,173.0,"Lausanne, César-Roux"
8579237,0,8.0,36.0,"Lausanne, Ours"
8579237,1,27.0,56.0,"Lausanne, Ours"
8579237,2,29.0,58.0,"Lausanne, Ours"
8579237,3,33.0,60.0,"Lausanne, Ours"
8579237,4,31.0,58.0,"Lausanne, Ours"
8579237,5,67.0,89.5,"Lausanne, Ours"
8579237,6,42.0,61.0,"Lausanne, Ours"
8579238,0,0.0,45.0,"Lausanne, Sallaz"
8579238,1,12.0,56.0,"Lausanne, Sallaz"
8579238,2,12.0,56.0,"Lausanne, Sallaz"
8579238,3,15.0,61.0,"Lausanne, Sallaz"
8579238,4,13.0,58.0,"Lausanne, Sallaz"
8579238,5,10.0,53.0,"Lausanne, Sallaz"
8579238,6,7.0,45.0,"Lausanne, Sallaz"
8579245,0,43.0,59.0,"Lausanne, Foyer"
8579245,1,50.5,67.0,"Lausanne, Foyer"
8579245,2,50.0,68.0,"Lausanne, Foyer"
8579245,3,54.0,71.0,"Lausanne, Foyer"
8579245,4,53.0,70.0,"Lausanne, Foyer"
8579245,5,51.0,65.0,"Lausanne, Foyer"
8579245,6,37.0,48.0,"Lausanne, Foyer"
8579254,0,9.0,61.0,"Lausanne, St-François"
8579254,1,26.0,76.0,"Lausanne, St-François"
8579254,2,30.0,77.0,"Lausanne, St-François"
8579254,3,35.0,85.0,"Lausanne, St-François"
8579254,4,31.0,79.0,"Lausanne, St-François"
8579254,5,45.0,91.0,"Lausanne, St-François"
8579254,6,23.0,67.0,"Lausanne, St-François"
8588431,0,28.0,47.0,"Lausanne, Béthusy"
8588431,1,43.0,62.0,"Lausanne, Béthusy"
8588431,2,43.0,64.0,"Lausanne, Béthusy"
8588431,3,47.0,65.0,"Lausanne, Béthusy"
8588431,4,45.0,66.0,"Lausanne, Béthusy"
8588431,5,69.0,87.0,"Lausanne, Béthusy"
8588431,6,42.0,57.0,"Lausanne, Béthusy"
8589522,0,50.5,72.0,"Lausanne, place du Nord"
8589522,1,81.0,104.0,"Lausanne, place du Nord"
8589522,2,87.0,108.5,"Lausanne, place du Nord"
8589522,3,78.0,102.0,"Lausanne, place du Nord"
8589522,4,84.0,107.0,"Lausanne, place du Nord"
8589522,5,95.0,113.0,"Lausanne, place du Nord"
8589522,6,75.0,89.5,"Lausanne, place du Nord"
8589523,0,15.0,52.0,"Lausanne, Bessières"
8589523,1,28.0,65.0,"Lausanne, Bessières"
8589523,2,30.0,67.0,"Lausanne, Bessières"
8589523,3,39.0,75.0,"Lausanne, Bessières"
8589523,4,34.0,70.0,"Lausanne, Bessières"
8589523,5,63.0,96.0,"Lausanne, Bessières"
8589523,6,34.0,59.0,"Lausanne, Bessières"
8590442,0,65.0,109.0,"Lausanne, Riponne-M. Béjart"
8590442,1,92.0,134.5,"Lausanne, Riponne-M. Béjart"
8590442,2,97.0,140.0,"Lausanne, Riponne-M. Béjart"
8590442,3,93.0,136.0,"Lausanne, Riponne-M. Béjart"
8590442,4,95.0,141.0,"Lausanne, Riponne-M. Béjart"
8590442,5,117.0,161.0,"Lausanne, Riponne-M. Béjart"
8590442,6,87.0,128.0,"Lausanne, Riponne-M. Béjart"
8591978,0,63.0,78.0,"Lausanne, Allières/CHUV"
8591978,1,76.0,92.0,"Lausanne, Allières/CHUV"
8591978,2,78.0,93.0,"Lausanne, Allières/CHUV"
8591978,3,82.0,96.0,"Lausanne, Allières/CHUV"
8591978,4,81.0,96.0,"Lausanne, Allières/CHUV"
8591978,5,104.0,117.0,"Lausanne, Allières/CHUV"
8591978,6,76.0,87.0,"Lausanne, Allières/CHUV"
8591983,0,378.0,389.5,"Lausanne, Batelière"
8591983,3,710.5,735.5,"Lausanne, Batelière"
8591985,0,387.0,398.5,"Lausanne, jardin botanique"
8591985,3,722.5,733.5,"Lausanne, jardin botanique"
8591988,0,50.0,92.0,"Lausanne, Bel-Air"
8591988,1,67.0,111.0,"Lausanne, Bel-Air"
8591988,2,72.0,114.0,"Lausanne, Bel-Air"
8591988,3,76.0,118.0,"Lausanne, Bel-Air"
8591988,4,75.0,117.0,"Lausanne, Bel-Air"
8591988,5,92.0,135.0,"Lausanne, Bel-Air"
8591988,6,76.0,107.0,"Lausanne, Bel-Air"
8592001,0,52.0,66.5,"Lausanne, Boston"
8592001,1,52.0,68.0,"Lausanne, Boston"
8592001,2,58.0,76.0,"Lausanne, Boston"
8592001,3,60.0,71.0,"Lausanne, Boston"
8592001,4,73.0,92.0,"Lausanne, Boston"
8592001,5,68.0,88.0,"Lausanne, Boston"
8592001,6,38.0,49.0,"Lausanne, Boston"
8592002,0,44.0,61.0,"Lausanne, Boveresses"
8592002,1,51.0,68.0,"Lausanne, Boveresses"
8592002,2,50.0,68.0,"Lausanne, Boveresses"
8592002,3,53.0,70.0,"Lausanne, Boveresses"
8592002,4,52.0,70.0,"Lausanne, Boveresses"
8592002,5,52.0,68.0,"Lausanne, Boveresses"
8592002,6,42.0,54.0,"Lausanne, Boveresses"
8592004,0,64.0,101.0,"Lausanne, Cécil"
8592004,1,84.0,119.0,"Lausanne, Cécil"
8592004,2,91.0,127.0,"Lausanne, Cécil"
8592004,3,92.5,128.0,"Lausanne, Cécil"
8592004,4,90.0,124.5,"Lausanne, Cécil"
8592004,5,103.0,136.0,"Lausanne, Cécil"
8592004,6,92.0,120.0,"Lausanne, Cécil"
8592005,0,401.5,406.5,"Lausanne, Cèdres"
8592005,3,736.5,748.5,"Lausanne, Cèdres"
8592010,0,21.0,55.0,"Lausanne, Chauderon"
8592010,1,34.0,69.0,"Lausanne, Chauderon"
8592010,2,39.0,75.0,"Lausanne, Chauderon"
8592010,3,43.0,80.0,"Lausanne, Chauderon"
8592010,4,40.5,78.0,"Lausanne, Chauderon"
8592010,5,60.0,92.0,"Lausanne, Chauderon"
8592010,6,50.0,78.0,"Lausanne, Chauderon"
8592027,0,373.0,373.0,"Lausanne, Dapples"
8592027,3,722.0,722.0,"Lausanne, Dapples"
8592040,0,373.0,397.5,"Lausanne, Epinettes"
8592040,3,799.5,816.0,"Lausanne, Epinettes"
8592044,0,69.0,88.0,"Lausanne, Figuiers"
8592044,1,79.0,99.0,"Lausanne, Figuiers"
8592044,2,81.0,103.0,"Lausanne, Figuiers"
8592044,3,83.0,105.0,"Lausanne, Figuiers"
8592044,4,80.0,100.0,"Lausanne, Figuiers"
8592044,5,89.0,106.0,"Lausanne, Figuiers"
8592044,6,68.0,81.0,"Lausanne, Figuiers"
8592046,0,41.0,58.0,"Lausanne, Fontenay"
8592046,1,50.0,68.0,"Lausanne, Fontenay"
8592046,2,53.0,71.0,"Lausanne, Fontenay"
8592046,3,57.0,76.0,"Lausanne, Fontenay"
8592046,4,53.0,71.0,"Lausanne, Fontenay"
8592046,5,66.0,83.0,"Lausanne, Fontenay"
8592046,6,66.0,79.0,"Lausanne, Fontenay"
8592050,0,318.0,318.0,"Lausanne, gare"
8592050,3,684.0,684.0,"Lausanne, gare"
8592050,4,509.5,510.0,"Lausanne, gare"
8592051,4,546.0,609.5,"Lausanne, Georgette"
8592064,0,74.0,88.0,"Lausanne, Languedoc"
8592064,1,87.0,99.0,"Lausanne, Languedoc"
8592064,2,90.0,102.0,"Lausanne, Languedoc"
8592064,3,93.0,106.0,"Lausanne, Languedoc"
8592064,4,91.0,103.0,"Lausanne, Languedoc"
8592064,5,100.0,111.0,"Lausanne, Languedoc"
8592064,6,98.0,105.0,"Lausanne, Languedoc"
8592068,0,0.0,0.0,"Lausanne, Maladière"
8592068,1,0.0,0.0,"Lausanne, Maladière"
8592068,2,0.0,0.0,"Lausanne, Maladière"
8592068,3,0.0,0.0,"Lausanne, Maladière"
8592068,4,0.0,0.0,"Lausanne, Maladière"
8592068,5,0.0,0.0,"Lausanne, Maladière"
8592068,6,0.0,0.0,"Lausanne, Maladière"
8592072,4,489.0,489.0,"Lausanne, Mirabeau"
8592075,0,81.0,96.0,"Lausanne, Mont d'Or"
8592075,1,89.0,105.0,"Lausanne, Mont d'Or"
8592075,2,93.0,109.0,"Lausanne, Mont d'Or"
8592075,3,96.0,112.0,"Lausanne, Mont d'Or"
8592075,4,92.0,107.0,"Lausanne, Mont d'Or"
8592075,5,104.0,120.0,"Lausanne, Mont d'Or"
8592075,6,108.0,118.0,"Lausanne, Mont d'Or"
8592080,0,36.0,53.0,"Lausanne, Montoie"
8592080,1,45.0,62.0,"Lausanne, Montoie"
8592080,2,46.0,62.0,"Lausanne, Montoie"
8592080,3,49.0,66.0,"Lausanne, Montoie"
8592080,4,45.0,65.0,"Lausanne, Montoie"
8592080,5,58.0,75.0,"Lausanne, Montoie"
8592080,6,46.0,58.0,"Lausanne, Montoie"
8592096,0,135.0,158.0,"Lausanne, Pont Chauderon"
8592096,1,161.0,183.0,"Lausanne, Pont Chauderon"
8592096,2,159.0,183.0,"Lausanne, Pont Chauderon"
8592096,3,166.0,188.0,"Lausanne, Pont Chauderon"
8592096,4,164.0,186.0,"Lausanne, Pont Chauderon"
8592096,5,178.0,196.0,"Lausanne, Pont Chauderon"
8592096,6,131.0,149.0,"Lausanne, Pont Chauderon"
8592097,0,65.0,82.0,"Lausanne, Pont Marc Dufour"
8592097,1,78.0,96.0,"Lausanne, Pont Marc Dufour"
8592097,2,83.0,100.0,"Lausanne, Pont Marc Dufour"
8592097,3,86.0,105.0,"Lausanne, Pont Marc Dufour"
8592097,4,82.0,99.0,"Lausanne, Pont Marc Dufour"
8592097,5,109.0,125.0,"Lausanne, Pont Marc Dufour"
8592097,6,97.0,107.0,"Lausanne, Pont Marc Dufour"
8592101,0,0.0,0.0,"Lausanne, Praz-Séchaud"
8592101,1,0.0,0.0,"Lausanne, Praz-Séchaud"
8592101,2,0.0,0.0,"Lausanne, Praz-Séchaud"
8592101,3,0.0,0.0,"Lausanne, Praz-Séchaud"
8592101,4,0.0,0.0,"Lausanne, Praz-Séchaud"
8592101,5,0.0,0.0,"Lausanne, Praz-Séchaud"
8592101,6,0.0,0.0,"Lausanne, Praz-Séchaud"
8592102,0,0.0,0.0,"Lausanne, Prélaz"
8592102,1,0.0,0.0,"Lausanne, Prélaz"
8592102,2,0.0,0.0,"Lausanne, Prélaz"
8592102,3,0.0,0.0,"Lausanne, Prélaz"
8592102,4,0.0,0.0,"Lausanne, Prélaz"
8592102,5,0.0,2.0,"Lausanne, Prélaz"
8592102,6,0.0,0.0,"Lausanne, Prélaz"
8592109,0,29.0,46.0,"Lausanne, Recordon"
8592109,1,34.0,47.0,"Lausanne, Recordon"
8592109,2,33.0,43.0,"Lausanne, Recordon"
8592109,3,34.0,49.0,"Lausanne, Recordon"
8592109,4,53.0,65.0,"Lausanne, Recordon"
8592109,5,84.0,93.0,"Lausanne, Recordon"
8592109,6,43.0,59.5,"Lausanne, Recordon"
8592110,0,386.5,392.5,"Lausanne, Riant-Cour"
8592110,3,728.5,738.5,"Lausanne, Riant-Cour"
8592118,0,34.0,48.0,"Lausanne, St-Etienne"
8592118,1,47.0,58.0,"Lausanne, St-Etienne"
8592118,2,46.0,59.0,"Lausanne, St-Etienne"
8592118,3,51.0,62.0,"Lausanne, St-Etienne"
8592118,4,49.0,62.0,"Lausanne, St-Etienne"
8592118,5,43.0,53.0,"Lausanne, St-Etienne"
8592118,6,51.0,58.0,"Lausanne, St-Etienne"
8592126,0,56.0,75.0,"Lausanne, Vallonnette"
8592126,1,69.0,89.0,"Lausanne, Vallonnette"
8592126,2,69.0,87.0,"Lausanne, Vallonnette"
8592126,3,73.0,94.0,"Lausanne, Vallonnette"
8592126,4,71.0,90.0,"Lausanne, Vallonnette"
8592126,5,97.0,115.0,"Lausanne, Vallonnette"
8592126,6,81.0,98.0,"Lausanne, Vallonnette"
8592127,0,58.0,79.0,"Lausanne, Valmont"
8592127,1,68.0,88.0,"Lausanne, Valmont"
8592127,2,69.0,89.0,"Lausanne, Valmont"
8592127,3,72.0,92.0,"Lausanne, Valmont"
8592127,4,71.0,93.0,"Lausanne, Valmont"
8592127,5,64.0,85.0,"Lausanne, Valmont"
8592127,6,75.0,90.0,"Lausanne, Valmont"
8592131,0,32.0,42.0,"Lausanne, Victor-Ruffy"
8592131,1,47.0,56.0,"Lausanne, Victor-Ruffy"
8592131,2,49.0,57.0,"Lausanne, Victor-Ruffy"
8592131,3,51.0,59.0,"Lausanne, Victor-Ruffy"
8592131,4,48.0,58.0,"Lausanne, Victor-Ruffy"
8592131,5,65.0,73.0,"Lausanne, Victor-Ruffy"
8592131,6,54.0,61.0,"Lausanne, Victor-Ruffy"
8592134,4,819.0,819.0,"Lausanne, Villard"
8592136,0,43.0,58.0,"Lausanne, Virgile-Rossel"
8592136,1,58.0,72.0,"Lausanne, Virgile-Rossel"
8592136,2,58.0,72.0,"Lausanne, Virgile-Rossel"
8592136,3,62.0,77.0,"Lausanne, Virgile-Rossel"
8592136,4,60.0,76.0,"Lausanne, Virgile-Rossel"
8592136,5,83.0,98.0,"Lausanne, Virgile-Rossel"
8592136,6,61.0,72.0,"Lausanne, Virgile-Rossel"
8593837,2,283.0,0.0,"Lausanne, Maladière-Figuiers"
